,City,Cloudiness,Country,Date,Humidity,Lat,Lng,Max Temp,Wind Speed
0,ribeira grande,20,ES,1586373114,82,42.75,-8.44,17.78,2.1
1,puerto ayora,100,ES,1586373114,55,36.59,-6.23,19.0,5.7
2,bredasdorp,99,ZA,1586372795,72,-34.53,20.04,16.11,6.2
3,rikitea,51,PF,1586372785,81,-23.12,-134.97,24.94,5.26
4,katsuura,0,JP,1586372840,76,35.13,140.3,13.0,4.1
5,grand gaube,1,US,1586373114,14,38.88,-109.5,20.0,2.6
6,hermanus,95,ZA,1586372784,73,-34.42,19.23,17.22,2.68
7,valparaiso,90,CL,1586372714,100,-33.04,-71.63,16.0,3.1
8,veraval,0,IN,1586373114,88,20.9,70.37,24.5,4.53
9,busselton,4,AU,1586372799,51,-33.65,115.33,16.11,3.72
10,qaanaaq,100,GL,1586372787,85,77.48,-69.36,-8.48,3.93
11,mataura,100,NZ,1586372807,91,-46.19,168.86,10.0,6.26
12,ushuaia,39,AR,1586373115,32,-54.8,-68.3,20.0,2.6
13,ambon,74,ID,1586372940,75,-3.7,128.18,27.88,4.05
14,sao paulo de olivenca,0,IN,1586373115,17,20.51,76.21,28.26,4.44
15,port alfred,82,CD,1586373115,56,-7.03,29.76,23.73,1.52
16,nikolskoye,40,RU,1586372797,33,59.7,30.79,8.0,2.0
17,hilo,90,US,1586372786,78,19.73,-155.09,23.0,1.13
18,port-gentil,98,GA,1586372820,85,-0.72,8.78,26.27,5.81
19,koungou,28,YT,1586373115,74,-12.73,45.2,29.0,4.6
20,hanmer springs,32,GB,1586373115,62,52.95,-2.81,16.67,5.7
21,burnie,69,AU,1586372923,86,-41.07,145.92,12.78,0.89
22,barrow,1,US,1586372646,83,71.29,-156.79,-24.0,2.6
23,balkhash,98,KZ,1586373116,58,46.84,74.98,4.56,3.96
24,port lincoln,82,CD,1586373116,56,-7.03,29.76,23.73,1.52
25,digha,14,IN,1586373116,79,21.68,87.55,28.09,6.2
26,belaya gora,0,UA,1586373116,55,49.03,25.77,12.77,3.3
27,punta arenas,0,PH,1586373116,84,8.99,125.34,24.61,0.63
28,ocara,91,BR,1586373116,59,-4.49,-38.6,30.99,2.56
29,airai,96,TL,1586372784,70,-8.93,125.41,16.06,0.35
30,thompson,75,CA,1586372543,95,55.74,-97.86,0.0,3.6
31,tuktoyaktuk,40,CA,1586372794,71,69.45,-133.04,-16.0,2.6
32,makakilo city,75,US,1586372893,83,21.35,-158.09,25.0,1.5
33,grootfontein,59,NA,1586373116,56,-19.57,18.12,18.47,2.54
34,labuhan,100,ID,1586372948,86,-6.88,112.21,25.19,2.13
35,kovur,26,IN,1586373117,76,14.48,79.98,27.99,3.28
36,salta,75,AR,1586373117,77,-24.79,-65.41,17.0,3.1
37,bulanash,98,RU,1586373117,89,57.28,62.0,-3.36,4.5
38,yellowknife,5,CA,1586372733,49,62.46,-114.35,-5.0,5.1
39,lorengau,72,PG,1586372784,79,-2.02,147.27,27.29,1.99
40,halifax,75,CA,1586372808,41,44.65,-63.57,8.89,5.7
41,cabedelo,20,BR,1586373117,62,-6.98,-34.83,31.0,5.7
42,khatanga,100,RU,1586372820,96,71.97,102.5,-4.97,4.46
43,upernavik,1,GL,1586372788,88,72.79,-56.15,-7.99,1.59
44,yulara,65,AU,1586372795,45,-25.24,130.99,17.0,3.1
45,vaini,90,TO,1586372782,100,-21.2,-175.2,26.0,23.1
46,nanortalik,99,GL,1586372845,79,60.14,-45.24,1.82,6.83
47,jamestown,20,US,1586372561,71,42.1,-79.24,16.11,7.2
48,kodiak,1,US,1586372783,59,57.79,-152.41,1.0,9.3
49,mount gambier,31,GB,1586373117,58,53.66,-1.85,17.78,3.1
50,sydney mines,75,AU,1586372923,88,-33.87,151.21,17.22,4.6
51,lata,40,PT,1586373118,82,40.16,-8.33,18.0,2.6
52,pilar,20,BR,1586373118,66,-9.6,-35.96,30.0,3.6
53,dunedin,90,NZ,1586373118,71,-45.87,170.5,10.56,0.89
54,new norfolk,75,LR,1586373072,79,6.65,-10.59,30.0,4.1
55,kemijarvi,100,FI,1586373118,83,66.71,27.43,1.78,4.81
56,khani,0,GE,1586373092,45,41.96,42.96,9.0,13.4
57,rio gallegos,3,GR,1586373119,51,38.3,21.78,14.0,5.7
58,albany,90,US,1586372497,50,42.6,-73.97,14.44,3.1
59,waingapu,73,ID,1586373119,77,-9.66,120.26,26.11,0.93
60,butaritari,100,KI,1586372811,79,3.07,172.79,28.61,6.69
61,requena,11,ES,1586372854,67,39.49,-1.1,16.67,3.6
62,avarua,75,CK,1586372530,88,-21.21,-159.78,27.0,7.7
63,vao,10,NC,1586373119,74,-22.67,167.48,23.63,6.35
64,kamaishi,98,JP,1586373119,80,39.27,141.88,7.79,3.24
65,cabo san lucas,20,BR,1586373119,66,-8.28,-35.03,30.0,4.6
66,dikson,47,RU,1586372818,96,73.51,80.55,-12.44,6.29
67,mar del plata,3,ES,1586373119,93,43.4,-4.01,14.44,2.1
68,bluff,100,NZ,1586372797,91,-46.6,168.33,10.0,6.26
69,atuona,0,PF,1586372783,77,-9.8,-139.03,28.12,6.88
70,tahoua,99,NE,1586373120,12,14.89,5.27,40.0,1.0
71,shagamu,40,NG,1586373120,79,6.84,3.65,30.0,2.6
72,montepuez,58,MZ,1586372884,85,-13.13,39.0,21.29,1.95
73,saint-joseph,13,RE,1586372894,78,-21.37,55.62,25.0,3.1
74,norman wells,1,US,1586372967,27,35.22,-97.44,33.0,4.1
75,egvekinot,25,RU,1586372957,85,66.32,-179.17,-24.31,1.28
76,kapaa,75,US,1586372732,88,22.08,-159.32,23.0,2.6
77,ende,96,ID,1586373121,74,-8.84,121.66,27.35,1.53
78,abu kamal,16,IN,1586373121,18,24.6,72.7,20.57,0.74
79,hasaki,20,JP,1586372843,93,35.73,140.83,9.0,3.1
80,longyearbyen,20,SJ,1586372843,63,78.22,15.64,-21.0,3.6
81,saint-philippe,9,RE,1586372798,78,-21.36,55.77,25.0,3.1
82,tuatapere,100,NZ,1586372782,91,-46.13,167.68,10.0,6.26
83,clyde river,1,US,1586373122,63,41.3,-82.98,21.11,3.1
84,carnduff,80,CA,1586373122,60,49.17,-101.8,1.11,6.26
85,nekhayevskiy,52,RU,1586373122,40,50.41,41.76,11.11,1.79
86,conde,20,BR,1586372954,62,-7.26,-34.91,31.0,5.7
87,hithadhoo,79,MV,1586372810,67,-0.6,73.08,29.76,3.85
88,hobart,0,AU,1586372669,87,-42.88,147.33,6.67,4.1
89,ayagoz,100,KZ,1586373123,66,47.97,80.44,4.49,3.52
90,verkh-usugli,16,RU,1586373123,62,52.7,115.17,-2.69,0.97
91,braniewo,51,PL,1586373123,61,54.38,19.82,10.71,3.5
92,cherskiy,98,RU,1586372783,89,68.75,161.3,-18.92,6.73
93,saint-francois,0,FR,1586373123,31,46.42,3.91,18.0,2.6
94,sioux lookout,1,US,1586373123,41,42.73,-96.23,14.0,7.7
95,kargopol,21,RU,1586373124,84,61.51,38.95,1.45,2.57
96,gwadar,0,PK,1586373124,72,25.12,62.33,25.77,4.21
97,sao filipe,0,IN,1586373124,17,20.51,76.21,28.26,4.44
98,elektrogorsk,87,RU,1586373124,66,55.88,38.79,9.0,5.0
99,torbay,75,CA,1586372812,50,47.67,-52.73,2.78,5.7
100,alice springs,1,US,1586372985,46,27.75,-98.07,37.0,3.1
101,fort nelson,43,NL,1586373124,67,52.65,6.39,18.89,1.5
102,lashio,90,MM,1586372883,23,22.93,97.75,18.17,0.54
103,tasiilaq,20,GL,1586372793,74,65.61,-37.64,-2.0,7.2
104,port elizabeth,82,CD,1586373124,56,-7.03,29.76,23.73,1.52
105,mys shmidta,100,RU,1586373125,91,62.06,48.62,0.69,2.64
106,valdivia,0,CL,1586372917,43,-39.81,-73.25,23.0,2.1
107,salinas,90,US,1586373043,71,36.68,-121.66,16.67,4.6
108,souillac,40,MU,1586372861,78,-20.52,57.52,27.0,4.6
109,ferme-neuve,94,CA,1586373126,51,46.7,-75.45,7.85,0.55
110,cockburn town,0,AU,1586373126,71,-32.08,141.0,10.0,4.0
111,kovernino,85,RU,1586373126,84,57.13,43.81,4.36,3.98
112,faanui,70,PF,1586372794,75,-16.48,-151.75,28.05,6.41
113,normandin,20,CA,1586373126,85,48.83,-72.53,0.0,2.6
114,alofi,96,NU,1586372795,83,-19.06,-169.92,28.0,4.1
115,dahra,45,DZ,1586373126,61,36.25,0.85,15.4,6.32
116,georgetown,40,MY,1586372959,83,5.41,100.34,28.0,2.1
117,kigali,40,RW,1586372967,83,-1.95,30.06,21.0,1.5
118,naliya,0,IN,1586373127,87,23.27,68.83,24.84,4.38
119,grand centre,1,US,1586373127,14,38.88,-109.5,20.0,2.6
120,vardo,40,NO,1586372851,86,70.37,31.11,3.0,4.1
121,ponnampet,92,IN,1586373127,66,12.15,75.93,21.29,0.86
122,bushehr,93,IR,1586373127,25,28.97,50.84,29.0,4.1
123,omsukchan,98,RU,1586373127,80,62.53,155.8,-10.59,1.35
124,constitucion,3,CL,1586372823,48,-35.33,-72.42,18.87,2.57
125,lebu,0,CL,1586372644,52,-37.62,-73.65,18.64,2.34
126,ahipara,82,NZ,1586372883,72,-35.17,173.17,16.04,7.02
127,pravokumskoye,9,RU,1586373128,63,44.77,44.65,3.76,5.26
128,meulaboh,94,ID,1586372783,83,4.14,96.13,26.36,1.76
129,cape town,0,CL,1586373128,27,-36.41,-71.9,26.0,3.1
130,arraial do cabo,40,BR,1586373128,53,-22.84,-46.65,25.56,6.2
131,hamilton,20,US,1586373129,39,39.18,-84.53,26.0,6.2
132,bahia blanca,97,BR,1586373129,53,-12.0,-42.0,27.9,1.22
133,kuah,40,MY,1586373129,83,6.33,99.84,28.0,1.5
134,sinjar,25,IQ,1586373129,46,36.32,41.88,17.57,4.31
135,jati,0,PK,1586373129,70,24.35,68.27,24.69,4.63
136,playa del carmen,20,CU,1586373129,40,23.09,-82.45,32.0,3.6
137,fershampenuaz,53,RU,1586373130,89,53.52,59.81,-6.59,2.86
138,tessalit,0,ML,1586373130,8,20.2,1.01,32.9,3.24
139,puerto narino,100,ES,1586373114,55,36.59,-6.23,19.0,5.7
140,khalabat,20,PK,1586373130,87,34.06,72.89,18.33,2.1
141,alekseyevka,64,RU,1586373130,66,50.63,38.69,9.01,4.61
142,vestmannaeyjar,0,IS,1586373130,60,63.44,-20.27,4.0,3.6
143,atambua,100,ID,1586373130,78,-9.11,124.89,23.75,1.18
144,namibe,0,AO,1586372853,57,-15.2,12.15,23.75,6.73
145,bonavista,95,CA,1586372959,50,48.65,-53.11,1.67,3.58
146,skibbereen,75,IE,1586373131,87,51.55,-9.27,11.0,2.1
147,afyonkarahisar,70,TR,1586372738,43,38.75,30.67,8.23,2.76
148,codrington,1,AU,1586372839,86,-38.27,141.97,13.26,5.05
149,lompoc,20,US,1586372823,71,34.64,-120.46,13.33,2.1
150,carnarvon,7,AU,1586372786,83,-24.87,113.63,24.0,3.1
151,whitehorse,90,CA,1586372552,63,60.72,-135.05,-2.0,8.2
152,aranos,59,NA,1586373131,15,-24.13,19.12,26.09,3.59
153,geraldton,0,AU,1586372799,88,-28.77,114.6,19.0,2.1
154,foso,30,GH,1586373131,67,5.7,-1.29,29.02,3.3
155,dalby,90,AU,1586373131,82,-27.18,151.27,18.89,3.6
156,esperance,37,AU,1586372867,63,-33.87,121.9,18.0,8.2
157,mount isa,31,GB,1586373132,58,53.66,-1.85,17.78,3.1
158,paamiut,67,GL,1586372824,82,61.99,-49.67,1.43,1.62
159,tevaitoa,74,PF,1586373133,74,-16.78,-151.5,28.54,6.21
160,sur,0,OM,1586372795,46,22.57,59.53,27.92,2.48
161,kuching,20,MY,1586373133,88,1.55,110.33,26.0,1.0
162,biak,88,ID,1586372798,68,-0.91,122.88,26.0,1.29
163,iqaluit,5,CA,1586373109,66,63.75,-68.51,-11.0,1.5
164,jasper,1,US,1586373133,40,37.2,-94.35,30.0,1.5
165,kuzovatovo,96,RU,1586373133,69,53.55,47.69,6.17,3.33
166,kaitangata,99,NZ,1586372820,72,-46.28,169.85,8.89,1.34
167,soma,20,TR,1586373133,65,39.19,27.61,8.0,6.2
168,sao joao da barra,0,IN,1586373115,17,20.51,76.21,28.26,4.44
169,luderitz,0,NA,1586372785,82,-26.65,15.16,16.0,4.1
170,amherst center,1,US,1586373133,45,41.4,-82.22,20.56,3.6
171,kamenka,77,RU,1586372829,50,51.32,42.77,10.56,4.22
172,champasak,76,LA,1586373134,85,14.75,106.0,22.87,0.76
173,coihaique,0,CL,1586372811,52,-45.58,-72.07,21.0,1.5
174,hofn,75,IS,1586372874,55,64.25,-15.21,3.0,5.1
175,severo-kurilsk,99,RU,1586372829,96,50.68,156.12,-1.03,1.55
176,saskylakh,86,RU,1586372783,97,71.92,114.08,-8.12,1.88
177,acari,36,PE,1586373134,52,-15.43,-74.62,27.85,4.2
178,chokurdakh,47,RU,1586372810,90,70.63,147.92,-25.28,2.7
179,necochea,0,AR,1586373134,65,-38.55,-58.74,18.33,1.79
180,bethel,90,US,1586372841,71,41.37,-73.41,15.0,2.1
181,latung,23,PH,1586373134,69,5.5,120.88,27.57,3.49
182,ketanggungan,99,ID,1586373134,88,-6.94,108.89,25.49,1.08
183,moche,75,PE,1586373135,78,-8.17,-79.01,23.0,4.6
184,koutiala,40,ML,1586373135,7,12.39,-5.46,39.0,2.53
185,tateyama,0,JP,1586373135,76,34.98,139.87,13.0,4.1
186,bathsheba,40,BB,1586372788,62,13.22,-59.52,30.0,7.2
187,bengkulu,97,ID,1586372783,81,-3.8,102.27,25.58,1.65
188,tenkodogo,88,BF,1586373135,10,11.78,-0.37,38.0,1.6
189,berdigestyakh,99,RU,1586372844,95,62.1,126.7,-1.13,2.41
190,alexandria,8,EG,1586373018,67,31.22,29.96,17.0,3.6
191,haines junction,100,US,1586373135,89,59.23,-135.44,2.0,7.2
192,ponerihouen,58,NC,1586373135,81,-21.08,165.4,23.83,5.26
193,vallenar,1,CL,1586373135,31,-28.57,-70.76,26.38,4.46
194,trunovskoye,32,RU,1586373136,34,45.49,42.14,3.0,4.0
195,salalah,0,OM,1586372842,83,17.02,54.09,27.0,2.1
196,ponta do sol,40,PT,1586373136,77,38.73,-28.27,18.0,7.2
197,petropavlovsk-kamchatskiy,100,RU,1586372686,80,53.05,158.65,-1.0,2.0
198,tymovskoye,1,RU,1586373136,92,50.85,142.66,-6.19,0.52
199,ikskile,78,LV,1586373136,49,56.83,24.5,9.0,2.1
200,padre bernardo,100,BR,1586373137,93,-3.74,-59.19,26.54,1.66
201,lar,7,IN,1586373137,19,26.2,83.97,27.49,3.39
202,praia da vitoria,0,CV,1586373071,57,14.92,-23.51,26.0,9.3
203,chuy,96,UY,1586372821,63,-33.7,-53.46,17.38,6.36
204,chiredzi,100,ZW,1586373137,61,-21.05,31.67,22.94,4.05
205,castro,16,BR,1586372811,29,-24.79,-50.01,23.3,2.06
206,ilulissat,20,GL,1586372796,49,69.22,-51.1,-5.0,1.5
207,ilebo,61,CD,1586373137,79,-4.32,20.58,23.72,1.08
208,abu samrah,16,IN,1586373138,18,24.6,72.7,20.57,0.74
209,saldanha,66,ZA,1586372841,34,-33.01,17.94,18.0,3.6
210,lago da pedra,61,SL,1586373138,66,8.27,-12.15,29.91,2.19
211,pitimbu,20,BR,1586372892,62,-7.47,-34.81,31.0,5.7
212,semey,100,KZ,1586373139,72,50.41,80.23,4.92,2.92
213,ginir,13,ET,1586373139,48,7.13,40.7,16.47,1.26
214,sumbe,8,AO,1586373139,80,-11.21,13.84,25.62,2.21
215,oga,62,IT,1586373139,64,46.46,10.35,6.0,2.1
216,ketchikan,90,US,1586373139,93,55.34,-131.65,4.0,12.9
217,mahebourg,40,MU,1586372840,78,-20.41,57.7,27.0,4.6
218,provideniya,63,RU,1586372864,91,64.38,-173.3,-16.01,2.19
219,novyy urengoy,1,RU,1586373139,36,45.01,38.98,7.0,4.0
220,pevek,89,RU,1586372820,91,69.7,170.31,-23.0,1.64
221,padang,100,ID,1586372933,75,-0.95,100.35,25.81,1.27
222,balikpapan,40,ID,1586373140,100,-1.27,116.83,25.0,1.5
223,mackay,75,AU,1586372810,88,-21.15,149.2,22.22,1.5
224,sitka,90,US,1586372881,86,57.05,-135.33,4.0,9.8
225,sokoni,20,TZ,1586373140,83,-6.43,39.55,28.0,5.19
226,nouakchott,0,MR,1586372944,40,18.09,-15.98,30.0,8.2
227,touros,40,BR,1586372808,66,-5.2,-35.46,31.0,5.1
228,klaksvik,21,FO,1586373140,74,62.23,-6.59,3.0,4.1
229,taree,90,AU,1586373140,100,-31.9,152.47,17.0,2.1
230,almaznyy,0,RU,1586372822,22,48.04,40.05,7.0,3.0
231,port macquarie,82,CD,1586373141,56,-7.03,29.76,23.73,1.52
232,kavieng,54,PG,1586372788,75,-2.57,150.8,28.33,2.54
233,batagay-alyta,100,RU,1586373141,87,67.8,130.41,-6.94,1.31
234,vostok,61,RU,1586372840,88,46.49,135.88,-5.8,2.56
235,tiksi,42,RU,1586372843,90,71.69,128.87,-16.72,2.15
236,cayenne,75,GF,1586372769,70,4.93,-52.33,30.0,5.7
237,talnakh,75,RU,1586373141,86,69.49,88.4,1.0,11.0
238,vila franca do campo,100,PT,1586373141,87,42.03,-8.16,16.11,1.0
239,mahajanga,20,MG,1586372941,88,-15.72,46.32,27.0,1.5
240,menongue,0,AO,1586373141,48,-14.66,17.69,19.9,1.61
241,komsomolskiy,90,UZ,1586372786,80,40.43,71.72,4.0,8.2
242,kaspiyskiy,36,RU,1586373142,62,45.39,47.37,6.05,7.13
243,orlik,0,RU,1586373142,62,52.52,99.83,-4.46,1.48
244,nemuro,0,JP,1586372830,94,43.32,145.57,0.29,4.31
245,turayf,36,SA,1586373142,44,31.67,38.66,15.0,3.1
246,erzin,20,TR,1586373066,67,36.96,36.2,16.67,4.1
247,altus,1,US,1586373142,15,34.64,-99.33,33.0,5.1
248,grindavik,20,IS,1586372819,59,63.84,-22.43,3.0,1.5
249,baykit,94,RU,1586372786,81,61.67,96.37,4.02,2.25
250,jennings,20,US,1586373143,30,38.72,-90.26,31.67,3.1
251,shingu,0,JP,1586372872,59,33.73,135.98,9.02,2.72
252,luxor,0,EG,1586373143,33,25.7,32.64,24.0,2.1
253,saint-augustin,100,CA,1586373078,94,51.23,-58.65,-3.24,4.9
254,tecoanapa,26,MX,1586373143,38,16.52,-98.75,32.48,4.25
255,vila,100,PT,1586373141,87,42.03,-8.16,16.11,1.0
256,lagoa,26,PT,1586372787,84,39.05,-27.98,16.51,5.17
257,usinsk,48,RU,1586372878,94,65.99,57.53,-9.04,3.47
258,chegdomyn,0,RU,1586373143,91,51.12,133.02,-3.83,0.46
259,carrefour,13,HT,1586373143,62,18.54,-72.4,31.0,5.1
260,leningradskiy,100,RU,1586372880,90,69.38,178.42,-17.62,2.93
261,mizdah,61,LY,1586373143,35,31.45,12.98,16.65,5.02
262,pangkalanbuun,95,ID,1586373144,92,-2.68,111.62,24.59,0.91
263,kaoma,9,ZM,1586372876,63,-14.78,24.8,18.95,1.77
264,grand river south east,1,US,1586373114,14,38.88,-109.5,20.0,2.6
265,fairbanks,75,US,1586372689,52,64.84,-147.72,-5.56,0.49
266,novotroitskaya,21,RU,1586373144,34,45.33,41.53,3.0,4.0
267,maniitsoq,97,GL,1586372865,86,65.42,-52.9,-2.45,2.73
268,corn island,96,FR,1586373145,47,44.61,1.9,14.44,4.6
269,liku,72,ID,1586373145,75,-0.73,119.89,24.08,0.71
270,jumla,39,NP,1586372812,27,29.27,82.18,5.41,1.2
271,carballo,100,ES,1586372896,93,43.21,-8.69,16.67,1.39
272,flinders,40,AU,1586372829,93,-34.58,150.86,16.11,3.6
273,aklavik,5,CA,1586372885,61,68.22,-135.01,-9.0,1.5
274,brooks,44,CA,1586373145,40,50.58,-111.89,2.78,5.81
275,salvador,78,SV,1586373146,52,13.83,-88.92,34.0,4.1
276,coquimbo,90,CL,1586372942,77,-29.95,-71.34,18.0,3.1
277,ulladulla,40,AU,1586373026,93,-35.35,150.47,15.0,3.6
278,jining,90,CN,1586373076,69,35.41,116.58,10.82,4.54
279,phek,23,IN,1586373146,37,25.67,94.5,12.99,1.07
280,blackwater,59,AU,1586373146,77,-23.58,148.88,19.49,3.8
281,imbituba,0,BR,1586373147,64,-28.24,-48.67,24.0,5.1
282,dunyapur,20,PK,1586372887,54,29.8,71.72,26.0,2.27
283,anchorage,1,US,1586373147,35,61.22,-149.9,-2.0,2.88
284,bambous virieux,40,MU,1586373147,78,-20.26,57.41,27.0,4.6
285,struer,66,DK,1586373147,71,56.49,8.58,10.0,3.6
286,dongning,100,CN,1586373148,85,44.06,131.12,1.2,1.43
287,havre-saint-pierre,1,CA,1586372874,63,50.23,-63.6,-1.0,8.2
288,kananga,82,CD,1586373148,69,-5.9,22.42,23.26,0.66
289,laguna,1,US,1586372882,76,38.42,-121.42,17.78,1.55
290,akyab,85,MM,1586373071,88,20.15,92.9,25.39,1.69
291,kirakira,12,SB,1586373148,81,-10.45,161.92,25.85,2.16
292,belmonte,20,BR,1586373148,74,-15.86,-38.88,29.0,7.2
293,gorontalo,93,ID,1586373148,87,0.54,123.06,24.01,1.42
294,kholodnyy,52,RU,1586373148,84,62.72,147.95,-12.28,2.14
295,ostrovnoy,99,RU,1586372788,85,68.05,39.51,2.12,7.5
296,seaside,90,US,1586373148,67,36.61,-121.85,16.11,5.7
297,victoria,20,HK,1586372650,64,22.29,114.16,21.11,4.6
298,lannion,24,FR,1586373149,81,48.75,-3.42,13.0,2.1
299,sabang,57,ID,1586372956,73,5.89,95.32,28.63,3.74
300,stutterheim,99,ZA,1586373149,71,-32.57,27.42,11.11,3.27
301,juneau,90,US,1586372855,84,58.3,-134.42,2.22,14.4
302,dangriga,75,BZ,1586373149,70,16.97,-88.23,32.78,5.1
303,marolambo,33,MG,1586373149,82,-20.05,48.12,21.06,0.44
304,monte patria,1,FR,1586373149,58,42.47,9.39,15.0,1.5
305,benguela,0,AO,1586373150,77,-12.58,13.41,25.65,0.45
306,malakal,55,SS,1586373150,27,9.53,31.66,33.31,1.56
307,piacabucu,60,BR,1586373150,60,-10.41,-36.43,29.6,3.85
308,turukhansk,100,RU,1586372964,89,65.82,87.98,0.68,6.47
309,rio grande,3,GR,1586373150,51,38.3,21.78,14.0,5.7
310,shache,18,CN,1586372856,17,38.42,77.24,16.09,2.88
311,culiacancito,90,MX,1586373150,54,24.82,-107.53,29.44,5.7
312,masaki,31,JP,1586373150,63,33.79,132.71,8.33,0.45
313,manokwari,25,ID,1586373150,74,-0.87,134.08,26.1,2.28
314,westport,90,US,1586372788,71,41.14,-73.36,17.22,3.1
315,solnechnyy,0,RU,1586373092,90,50.72,136.63,-4.75,2.1
316,ales,0,FR,1586373151,33,44.13,4.08,16.11,2.6
317,bomet,78,KE,1586373151,47,-0.78,35.34,15.28,1.4
318,klyuchi,76,RU,1586373151,68,52.27,79.17,2.37,2.49
319,ramos arizpe,75,PH,1586373151,83,15.68,120.63,26.0,1.0
320,shangqiu,80,CN,1586373151,64,34.45,115.65,12.8,0.99
321,mmabatho,33,ZA,1586373151,42,-25.85,25.63,19.0,2.6
322,fortuna,20,US,1586372705,76,40.6,-124.16,18.89,3.12
323,moron,0,AR,1586373151,42,-34.65,-58.62,21.11,3.1
324,sarkand,96,KZ,1586373151,58,45.41,79.92,5.05,1.11
325,nhulunbuy,40,AU,1586372853,88,-12.23,136.77,25.0,3.1
326,lapeer,40,US,1586373151,45,43.05,-83.32,21.11,4.1
327,katobu,100,ID,1586373152,91,-4.94,122.53,23.94,1.32
328,inhambane,75,MZ,1586372885,83,-23.86,35.38,24.0,2.1
329,kampot,68,KH,1586373152,73,10.62,104.18,26.81,0.31
330,linxia,61,CN,1586372782,19,35.6,103.21,9.56,1.74
331,milkovo,100,RU,1586373152,94,54.72,158.62,-6.38,0.84
332,harrisburg,20,US,1586372898,40,40.27,-76.88,23.33,5.7
333,atar,0,MR,1586372939,8,20.52,-13.05,37.58,5.11
334,lovozero,100,RU,1586373153,89,68.0,35.01,0.29,3.72
335,benalla,36,AU,1586373153,76,-36.55,145.98,12.78,2.6
336,pueblo bello,1,US,1586373153,6,38.25,-104.61,25.0,5.1
337,pemberton,5,CA,1586373153,43,50.32,-122.8,10.0,1.0
338,batticaloa,56,LK,1586372955,77,7.71,81.69,26.94,2.79
339,champerico,20,GT,1586373153,47,14.3,-91.92,37.0,5.1
340,east london,20,IS,1586373148,63,65.0,-15.0,-2.0,4.1
341,luanda,40,AO,1586372957,78,-8.84,13.23,28.0,7.2
342,nakusp,54,CA,1586373153,61,50.25,-117.8,5.08,0.44
343,juba,59,SS,1586373153,38,4.85,31.58,30.22,0.14
344,arrifes,20,PT,1586373153,82,37.77,-25.7,18.0,5.7
345,oranjestad,40,AW,1586373016,66,12.52,-70.03,31.0,10.8
346,acapulco,40,MX,1586372794,52,16.86,-99.89,32.0,2.1
347,aykhal,92,RU,1586373075,43,66.0,111.5,2.0,5.0
348,opuwo,29,NA,1586372819,25,-18.06,13.84,25.17,0.41
349,zhanaozen,0,KZ,1586373154,58,43.3,52.8,5.47,3.5
350,shakawe,37,BW,1586373154,31,-18.37,21.85,23.77,0.94
351,portland,40,US,1586373110,54,45.52,-122.68,15.56,2.6
352,guru har sahai,17,NG,1586373154,17,10.31,10.81,33.74,0.94
353,ndende,98,GA,1586373154,85,-2.4,11.36,24.57,1.25
354,puerto el triunfo,100,ES,1586373154,55,36.59,-6.23,19.0,5.7
355,san patricio,42,ML,1586372902,7,13.3,-4.9,39.06,1.36
356,villa alemana,46,IT,1586373155,64,46.2,10.13,16.11,2.1
357,astana,40,KZ,1586372901,85,51.18,71.45,-5.0,3.0
358,sibolga,99,ID,1586372855,79,1.74,98.78,25.42,1.16
359,kentau,100,KZ,1586373155,80,43.52,68.51,2.22,3.59
360,bonthe,48,SL,1586373155,69,7.53,-12.51,30.01,4.49
361,pahrump,63,US,1586372764,33,36.21,-115.98,20.56,12.9
362,surab,0,PK,1586373155,16,28.49,66.26,17.08,0.42
363,broome,90,US,1586372830,58,42.25,-75.83,13.89,5.1
364,belyy yar,39,RU,1586373156,77,55.84,32.94,5.16,2.15
365,hay river,47,GB,1586373156,58,52.07,-3.13,18.89,0.45
366,isangel,16,VU,1586372822,77,-19.55,169.27,24.83,7.73
367,kruisfontein,99,ZA,1586372854,69,-34.0,24.73,15.61,6.53
368,guerrero negro,60,MX,1586373156,11,17.67,-100.0,35.9,0.2
369,lakes entrance,1,US,1586373156,49,61.61,-149.31,-2.0,7.2
370,mehamn,90,NO,1586372862,94,71.04,27.85,1.0,3.1
371,sawakin,32,SD,1586372886,78,19.11,37.33,26.09,5.18
372,tuy hoa,20,PH,1586373156,69,14.02,120.73,28.0,1.0
373,madang,98,PG,1586373157,81,-5.22,145.8,25.65,1.3
374,kholmogory,40,RU,1586373157,60,64.22,41.66,5.0,2.0
375,joensuu,88,FI,1586372806,52,62.6,29.76,7.0,3.1
376,rapar,0,IN,1586373157,58,23.57,70.63,28.13,7.17
377,pisco,8,PE,1586372845,30,-13.7,-76.22,24.44,3.1
378,bermeo,1,ES,1586373157,93,43.42,-2.72,18.33,2.1
379,kangaatsiaq,12,GL,1586373157,87,68.31,-53.46,-5.34,3.52
380,cave spring,20,IT,1586373157,76,41.82,12.93,16.67,3.1
381,buchanan,75,LR,1586373157,79,5.88,-10.05,30.0,4.1
382,cafarnaum,88,BR,1586373158,47,-11.69,-41.47,29.03,2.5
383,nuuk,5,GL,1586372881,86,64.18,-51.72,0.0,6.7
384,ancud,0,CL,1586372821,35,-41.87,-73.82,23.0,2.1
385,hovd,0,MN,1586373158,37,48.01,91.64,4.47,0.93
386,bulaevo,74,KZ,1586373158,81,54.91,70.44,-1.96,7.26
387,regeneracao,94,BR,1586373158,58,-6.24,-42.69,32.25,2.1
388,roma,90,US,1586372755,81,43.21,-75.46,11.11,4.1
389,talakan,7,RU,1586373159,88,50.32,130.37,-0.27,1.21
390,ishigaki,94,JP,1586373159,83,24.34,124.16,21.38,7.78
391,phuket,20,TH,1586373159,88,8.0,98.25,27.0,1.0
392,bandarbeyla,0,SO,1586372797,63,9.49,50.81,27.34,4.4
393,wakema,9,MM,1586373159,95,16.6,95.18,23.49,3.77
394,camopi,89,GF,1586373159,74,3.17,-52.32,29.5,2.05
395,novy hrozenkov,0,RU,1586373159,37,44.72,38.33,6.67,3.78
396,nara,2,JP,1586373064,66,34.69,135.8,10.0,7.2
397,bac lieu,0,RS,1586373104,37,45.39,19.24,12.22,2.6
398,tezu,36,IN,1586373159,30,27.92,96.17,23.05,1.12
399,cardston,40,CA,1586373159,38,49.2,-113.3,4.0,4.6
400,pochutla,20,MX,1586373159,44,15.74,-96.47,34.0,6.7
401,chokwe,87,MZ,1586373160,70,-24.53,32.98,21.74,4.02
402,port blair,82,CD,1586373116,56,-7.03,29.76,23.73,1.52
403,sungaipenuh,100,ID,1586373160,71,-2.08,101.38,18.91,0.6
404,kaeo,43,NZ,1586373160,89,-35.1,173.78,13.89,1.34
405,galesong,20,ID,1586373160,100,-5.32,119.37,23.0,2.1
406,pavlodar,73,KZ,1586373160,63,52.3,76.95,-2.0,2.0
407,kangavar,100,IR,1586373160,45,34.5,47.97,12.35,1.71
408,noshiro,98,JP,1586373160,73,40.2,140.02,4.81,1.78
409,tynda,1,RU,1586373160,89,55.17,124.72,-9.01,1.21
410,gold coast,1,US,1586373160,23,35.79,-81.76,29.0,4.1
411,fort oglethorpe,43,NL,1586373160,67,52.65,6.39,18.89,1.5
412,matamoros,75,MX,1586373121,19,25.53,-103.25,31.0,3.1
413,aginskoye,0,RU,1586373161,56,51.1,114.53,-1.05,0.83
414,foshan,78,CN,1586373161,82,23.03,113.13,21.11,1.0
415,ascension,75,US,1586373161,66,30.22,-90.9,30.0,1.5
416,talara,44,PE,1586373161,100,-4.58,-81.27,17.0,6.2
417,saquena,100,PE,1586373162,92,-4.67,-73.52,25.45,2.66
418,mongo,81,TD,1586372895,16,12.18,18.69,35.02,1.47
419,hualmay,26,PE,1586373070,61,-11.1,-77.61,26.41,5.35
420,bur gabo,59,DK,1586373162,82,56.37,8.43,8.33,4.32
421,qaqortoq,75,GL,1586373162,24,60.72,-46.03,7.0,2.6
422,aanekoski,100,FI,1586373162,72,62.69,25.82,7.78,4.1
423,srednekolymsk,100,RU,1586372938,91,67.45,153.68,-17.09,6.15
424,tabou,30,CI,1586373082,75,4.42,-7.35,28.69,3.39
425,chippenham,1,GB,1586373162,48,51.46,-2.12,19.0,1.87
426,yingcheng,75,CN,1586373163,82,30.95,113.55,13.0,1.0
427,bati,0,ET,1586373163,24,11.18,40.02,22.48,0.57
428,badiraguato,90,MX,1586373163,54,25.37,-107.52,29.0,5.7
429,mbanza-ngungu,70,CD,1586373163,82,-5.25,14.87,22.56,1.87
430,santander jimenez,1,ES,1586373163,93,43.46,-3.8,14.44,2.1
431,cidreira,32,BR,1586372844,62,-30.18,-50.21,19.22,7.92
432,novocheboksarsk,40,RU,1586373163,34,56.11,47.48,11.0,3.0
433,suratgarh,13,IN,1586373164,25,29.32,73.9,25.59,1.83
434,luancheng,93,CN,1586373164,49,37.88,114.65,8.0,2.0
435,port-cartier,40,CA,1586373164,37,50.03,-66.87,3.0,3.6
436,tukrah,92,LY,1586373164,65,32.53,20.58,13.41,5.51
437,manika,67,PH,1586373164,81,11.39,122.28,24.59,2.41
438,mbandaka,64,CD,1586373164,64,0.05,18.26,25.93,1.45
439,neiafu,75,TO,1586373164,88,-18.65,-173.98,28.0,8.2
440,ambilobe,11,MG,1586373069,84,-13.2,49.05,23.9,1.56
441,wad madani,87,RU,1586373165,82,55.53,44.21,7.94,4.34
442,naze,0,JP,1586372796,87,28.37,129.48,13.0,2.1
443,beloha,34,MG,1586373165,84,-25.17,45.05,22.78,3.15
444,khandagayty,68,RU,1586373165,63,50.73,92.05,-1.81,2.03
445,ginda,39,IN,1586372922,24,30.69,78.49,9.07,3.22
446,nyurba,82,RU,1586372851,97,63.28,118.33,-1.43,1.01
447,vega de alatorre,1,US,1586373165,12,35.24,-102.43,28.0,8.7
448,aberystwyth,13,GB,1586372682,69,52.42,-4.08,16.11,0.89
449,magadan,50,RU,1586373165,91,59.57,150.8,-8.77,1.43
450,baracoa,11,CU,1586373165,74,20.35,-74.5,26.1,5.06
451,cleethorpes,5,GB,1586373134,71,53.56,-0.03,20.0,3.6
452,galle,30,LK,1586373165,83,6.04,80.22,26.81,2.66
453,ulaangom,93,MN,1586373166,75,49.98,92.07,-2.69,0.65
454,bouna,31,CI,1586373166,38,9.27,-3.0,34.09,3.06
455,natal,20,BR,1586372947,66,-5.79,-35.21,31.0,7.2
456,karratha,12,AU,1586372967,64,-20.74,116.85,27.33,2.42
457,nouna,97,BF,1586373166,7,12.73,-3.87,39.16,2.14
458,novo aripuana,20,CU,1586373167,40,22.78,-82.23,32.0,3.6
459,vila velha,100,PT,1586373141,87,42.03,-8.16,16.11,1.0
460,nurota,90,UZ,1586373167,93,40.56,65.69,2.0,2.1
461,narsaq,75,GL,1586372863,20,60.92,-46.05,7.0,2.1
462,seoul,1,KR,1586372825,42,37.57,126.98,7.0,1.5
463,bilma,42,NE,1586372885,11,18.69,12.92,32.0,4.59
464,nome,90,US,1586372833,83,64.5,-165.41,-18.33,1.5
465,tsaratanana,11,MG,1586373167,69,-16.78,47.65,23.84,2.32
466,sobolevo,44,RU,1586373167,75,54.43,31.9,6.33,2.4
467,zhigansk,100,RU,1586373167,97,66.77,123.37,-0.95,3.82
468,hami,0,CN,1586372820,19,42.8,93.45,17.55,4.01
469,katangli,0,RU,1586373168,96,51.71,143.23,-7.13,3.05
470,chernyshevskiy,8,RU,1586373168,95,63.01,112.47,-4.21,1.44
471,smithers,90,CA,1586372590,47,54.78,-127.17,2.0,2.1
472,kawalu,100,ID,1586373168,81,-7.38,108.21,23.59,0.79
473,chumikan,0,RU,1586372956,92,54.72,135.31,-2.25,3.44
474,santa cruz,0,PH,1586373063,75,17.49,120.43,24.08,1.77
475,muros,20,ES,1586372863,82,42.78,-9.06,17.78,2.1
476,denpasar,20,ID,1586373143,94,-8.65,115.22,27.0,1.5
477,chishtian mandi,4,PK,1586372887,28,29.8,72.87,24.61,2.18
478,zaysan,8,KZ,1586372875,61,47.47,84.87,8.26,0.35
479,brae,9,GB,1586372782,70,60.4,-1.35,7.0,4.6
480,corinto,20,GR,1586373168,56,37.94,22.96,13.89,3.6
481,pangnirtung,20,CA,1586372793,73,66.15,-65.71,-7.0,1.0
482,nipawin,75,CA,1586373169,68,53.37,-104.0,-2.0,10.8
483,beboto,76,TD,1586373169,40,8.27,16.94,30.12,1.64
484,balabac,25,PH,1586373169,72,7.99,117.06,26.29,1.46
485,lumphat,96,KH,1586372883,86,13.49,106.98,24.52,1.31
486,dondo,75,MZ,1586373169,83,-19.61,34.74,28.0,7.7
487,kieta,27,PG,1586372831,79,-6.22,155.63,26.47,1.11
488,jacqueville,40,CI,1586373169,74,5.21,-4.41,30.0,4.6
489,bull savanna,75,LR,1586373169,79,6.2,-10.28,30.0,4.1
490,hope,1,US,1586373169,69,33.67,-93.59,30.0,5.7
491,saint-pierre,19,RE,1586373170,78,-21.34,55.48,25.0,3.1
492,lethem,88,GY,1586373170,45,3.38,-59.8,33.3,4.4
493,kwinana,0,AU,1586372985,82,-32.25,115.77,18.33,1.88
494,jinka,74,ET,1586373170,42,5.65,36.65,21.8,2.75
495,poum,21,NC,1586372808,77,-20.23,164.02,26.08,7.14
496,breves,99,BR,1586373170,85,-1.68,-50.48,29.33,0.53
497,husavik,36,IS,1586372787,55,66.04,-17.34,1.0,1.0
498,deming,1,US,1586373171,20,32.27,-107.76,23.0,6.7
499,sulangan,0,PH,1586373171,78,11.14,123.72,26.78,5.4
500,ural,83,RU,1586373171,72,55.91,94.75,4.91,3.7
501,lavrentiya,5,RU,1586372862,88,65.58,-171.0,-16.68,3.1
502,aadorf,1,CH,1586373171,41,47.49,8.9,17.0,1.5
503,bongandanga,54,CD,1586372873,61,1.5,21.05,27.73,1.26
504,kartaly,10,RU,1586373171,86,53.05,60.65,-3.11,2.92
505,uithoorn,63,NL,1586373090,62,52.24,4.83,19.44,3.1
506,ojinaga,1,MX,1586373172,19,29.57,-104.42,30.0,3.1
507,hyeres,0,FR,1586373172,50,43.12,6.12,17.22,0.72
508,toul,1,FR,1586372882,36,48.67,5.92,17.0,2.1
509,zaozerne,0,UA,1586373172,54,45.16,33.28,7.95,5.2
510,kabanjahe,40,ID,1586373172,94,3.1,98.49,27.0,1.5
511,sandakan,20,MY,1586373172,88,5.84,118.12,26.0,0.65
512,santa maria,0,PH,1586372882,75,17.49,120.43,24.08,1.77
513,viedma,0,AR,1586373173,20,-40.81,-63.0,22.19,5.86
514,grajau,100,BR,1586373130,72,-5.82,-46.14,29.53,0.31
515,beba,40,CU,1586373174,41,22.44,-79.73,34.0,2.6
516,guaruja,90,BR,1586373174,77,-23.99,-46.26,22.22,4.6
517,khandbari,65,NP,1586373174,21,27.37,87.2,19.52,2.3
518,kang,0,BW,1586373174,19,-23.68,22.79,23.28,0.11
519,singapore,75,SG,1586372849,88,1.29,103.85,27.0,3.37
520,antipovka,4,RU,1586373174,55,49.83,45.31,7.79,6.08
521,nishihara,75,JP,1586372925,72,26.18,127.76,18.0,2.6
522,uzunovo,79,RU,1586373174,79,54.54,38.62,7.4,5.54
523,gouyave,40,GD,1586372965,66,12.16,-61.73,30.0,9.8
524,kenora,75,CA,1586373174,64,49.82,-94.43,4.0,6.2
525,korla,0,CN,1586372872,53,41.76,86.15,20.0,0.45
526,kurmanayevka,100,RU,1586373174,86,52.51,52.07,5.06,4.68
527,constantine,20,DZ,1586373175,62,36.37,6.61,13.0,2.6
528,kharan,1,PK,1586373175,13,28.58,65.42,26.3,2.46
529,lasa,5,IT,1586372894,45,46.62,10.7,20.0,1.0
530,nadvoitsy,98,RU,1586373175,79,63.87,34.32,3.45,5.1
531,margate,10,GB,1586372898,76,51.38,1.39,16.11,2.6
532,jurado,94,CO,1586373175,80,7.11,-77.76,28.77,2.06
533,luganville,26,VU,1586372844,86,-15.53,167.17,24.72,0.72
534,hecun,77,CN,1586373175,45,36.53,114.11,9.59,3.85
535,kaka,89,TM,1586373175,63,37.35,59.61,3.6,3.5
536,prince george,40,CA,1586373175,58,52.97,-108.38,-2.0,11.3
537,taltal,5,CL,1586372936,62,-25.4,-70.48,21.38,2.49
538,lufilufi,75,WS,1586372896,83,-13.87,-171.6,29.0,3.6
